[
  {
    "name": "Adaigaon",
    "lat": 20.113638,
    "lng": 79.347987,
    "price": 3500000.0
  },
  {
    "name": "Agripada",
    "lat": 18.97779,
    "lng": 72.8318997,
    "price": 55208196.72131147
  },
  {
    "name": "Airoli",
    "lat": 19.153214763799,
    "lng": 72.955856833754,
    "price": 12608034.129692832
  },
  {
    "name": "Ambarnath",
    "lat": 19.118394180722,
    "lng": 72.854813995238,
    "price": 3020230.769230769
  },
  {
    "name": "Ambernath East",
    "lat": 19.118394180722,
    "lng": 72.854813995238,
    "price": 3402527.419354839
  },
  {
    "name": "Ambernath West",
    "lat": 19.118394180722,
    "lng": 72.854813995238,
    "price": 3429517.7993527506
  },
  {
    "name": "Ambivali",
    "lat": 19.878987,
    "lng": 72.907389,
    "price": 3426428.5714285714
  },
  {
    "name": "Andheri East",
    "lat": 19.1127953,
    "lng": 72.8624787,
    "price": 20379115.313653138
  },
  {
    "name": "Andheri West",
    "lat": 19.1340729,
    "lng": 72.8303618,
    "price": 32683900.6514658
  },
  {
    "name": "Anjurdive",
    "lat": 19.2286632,
    "lng": 73.0352137,
    "price": 7307833.333333333
  },
  {
    "name": "Antop Hill",
    "lat": 19.0234857,
    "lng": 72.8680815,
    "price": 28000000.0
  },
  {
    "name": "Asangaon",
    "lat": 19.0568743,
    "lng": 72.8899705,
    "price": 1825000.0
  },
  {
    "name": "Ashok nagar",
    "lat": 19.1064729,
    "lng": 72.8710718,
    "price": 25000000.0
  },
  {
    "name": "Babulnath Road",
    "lat": 18.958128948557,
    "lng": 72.809228633423,
    "price": 142666666.66666666
  },
  {
    "name": "Badlapur",
    "lat": 19.15516,
    "lng": 73.26553,
    "price": 3033333.3333333335
  },
  {
    "name": "Badlapur East",
    "lat": 19.15516,
    "lng": 73.26553,
    "price": 2942237.051792829
  },
  {
    "name": "Badlapur West",
    "lat": 18.9690472,
    "lng": 72.8211807,
    "price": 2550739.8119122256
  },
  {
    "name": "Bandra",
    "lat": 19.07715,
    "lng": 72.86036,
    "price": 106000000.0
  },
  {
    "name": "Bandra East",
    "lat": 19.0611187,
    "lng": 72.8470438,
    "price": 45811061.06870229
  },
  {
    "name": "Bandra Kurla Complex",
    "lat": 19.055471,
    "lng": 72.852397,
    "price": 68269444.44444445
  },
  {
    "name": "Bandra West",
    "lat": 19.0588335,
    "lng": 72.8346685,
    "price": 79010480.34934498
  },
  {
    "name": "Belapur",
    "lat": 19.293482,
    "lng": 74.082691,
    "price": 21793939.393939395
  },
  {
    "name": "Bhandup East",
    "lat": 19.1514562,
    "lng": 72.9457511,
    "price": 6608620.689655173
  },
  {
    "name": "Bhandup West",
    "lat": 19.1518497,
    "lng": 72.9370906,
    "price": 12987826.619964974
  },
  {
    "name": "Bhayandar East",
    "lat": 19.033344160097,
    "lng": 72.843804972489,
    "price": 8749535.398230089
  },
  {
    "name": "Bhayandar West",
    "lat": 19.033344160097,
    "lng": 72.843804972489,
    "price": 9706980.952380951
  },
  {
    "name": "Bhiwandi",
    "lat": 19.2711471,
    "lng": 73.0398744,
    "price": 4799148.867313916
  },
  {
    "name": "Bhoiwada",
    "lat": 19.011916,
    "lng": 72.847658,
    "price": 4000000.0
  },
  {
    "name": "Boisar",
    "lat": 18.9690472,
    "lng": 72.8211807,
    "price": 2495062.8571428573
  },
  {
    "name": "Borivali",
    "lat": 19.229126,
    "lng": 72.8574829,
    "price": 26157142.85714286
  },
  {
    "name": "Borivali East",
    "lat": 19.2279099,
    "lng": 72.8636476,
    "price": 17597018.251681075
  },
  {
    "name": "Borivali West",
    "lat": 19.2337763,
    "lng": 72.8569377,
    "price": 21139580.022701476
  },
  {
    "name": "Byculla",
    "lat": 18.9805513,
    "lng": 72.8345389,
    "price": 53684415.584415585
  },
  {
    "name": "Chandivali",
    "lat": 19.1130297,
    "lng": 72.8975373,
    "price": 11000000.0
  },
  {
    "name": "Chembur",
    "lat": 19.0487802,
    "lng": 72.90587,
    "price": 22771506.83994528
  },
  {
    "name": "Chembur East",
    "lat": 19.0487802,
    "lng": 72.90587,
    "price": 22000000.0
  },
  {
    "name": "Churchgate",
    "lat": 18.9270905,
    "lng": 72.8296755,
    "price": 82500000.0
  },
  {
    "name": "Colaba",
    "lat": 18.9249319,
    "lng": 72.8300808,
    "price": 47181481.481481485
  },
  {
    "name": "Cuffe Parade",
    "lat": 18.9153694,
    "lng": 72.8221451,
    "price": 41555555.55555555
  },
  {
    "name": "Dadar East",
    "lat": 19.0130221,
    "lng": 72.8446498,
    "price": 58185585.58558559
  },
  {
    "name": "Dadar West",
    "lat": 19.0177484,
    "lng": 72.8358202,
    "price": 47804123.711340204
  },
  {
    "name": "Dahisar",
    "lat": 19.2519154,
    "lng": 72.8681762,
    "price": 11635774.666666666
  },
  {
    "name": "Dahisar East",
    "lat": 19.2519154,
    "lng": 72.8681762,
    "price": 10380000.0
  },
  {
    "name": "Dahisar West",
    "lat": 19.2486856,
    "lng": 72.856437,
    "price": 9588888.888888888
  },
  {
    "name": "Deonar",
    "lat": 19.051053,
    "lng": 72.917649,
    "price": 37139672.4137931
  },
  {
    "name": "Dharavi",
    "lat": 19.0467392,
    "lng": 72.8522333,
    "price": 5933333.333333333
  },
  {
    "name": "Diva",
    "lat": 19.0745126,
    "lng": 72.8257802,
    "price": 3706437.5
  },
  {
    "name": "Dombivali",
    "lat": 19.21667,
    "lng": 73.08333,
    "price": 5604339.362051956
  },
  {
    "name": "Dombivali East",
    "lat": 19.2157323,
    "lng": 73.1031728,
    "price": 4761904.761904762
  },
  {
    "name": "Dombivli (West)",
    "lat": 19.232395,
    "lng": 73.0877602,
    "price": 1633333.3333333333
  },
  {
    "name": "Dronagiri",
    "lat": 19.16988840288,
    "lng": 72.865645928711,
    "price": 5447472.527472528
  },
  {
    "name": "Fort",
    "lat": 18.93357,
    "lng": 72.83867,
    "price": 23140000.0
  },
  {
    "name": "GTB Nagar",
    "lat": 19.039155,
    "lng": 72.864735,
    "price": 9500000.0
  },
  {
    "name": "Gandhar Nagar",
    "lat": 19.2555539,
    "lng": 73.135069,
    "price": 4000000.0
  },
  {
    "name": "Gauripada",
    "lat": 19.236884996871,
    "lng": 72.846574668235,
    "price": 3500000.0
  },
  {
    "name": "Ghansoli",
    "lat": 19.1292411,
    "lng": 73.001349,
    "price": 15697959.239130436
  },
  {
    "name": "Ghatkopar East",
    "lat": 19.0737181,
    "lng": 72.9123738,
    "price": 17210193.370165747
  },
  {
    "name": "Ghatkopar West",
    "lat": 19.0877975,
    "lng": 72.9026874,
    "price": 20205494.505494505
  },
  {
    "name": "Ghodbunder Road",
    "lat": 19.24444542534,
    "lng": 72.97668705234,
    "price": 63000000.0
  },
  {
    "name": "Girgaon",
    "lat": 18.9583363,
    "lng": 72.8199875,
    "price": 25571794.871794872
  },
  {
    "name": "Goregaon",
    "lat": 19.16517,
    "lng": 72.8477593,
    "price": 9100000.0
  },
  {
    "name": "Goregaon East",
    "lat": 19.1618056,
    "lng": 72.8575922,
    "price": 20699646.774193548
  },
  {
    "name": "Goregaon West",
    "lat": 19.1649713,
    "lng": 72.8459602,
    "price": 21569606.728538282
  },
  {
    "name": "Govandi",
    "lat": 19.0617181,
    "lng": 72.9174994,
    "price": 36750000.0
  },
  {
    "name": "Greater Khanda",
    "lat": 19.10629469394,
    "lng": 72.831764012962,
    "price": 6500000.0
  },
  {
    "name": "Hindu Colony",
    "lat": 19.0208179,
    "lng": 72.8484324,
    "price": 32000000.0
  },
  {
    "name": "Hiranandani Estates",
    "lat": 19.2540432,
    "lng": 72.9899286,
    "price": 11675000.0
  },
  {
    "name": "Jogeshwari East",
    "lat": 19.137052,
    "lng": 72.8555385,
    "price": 16261144.578313254
  },
  {
    "name": "Jogeshwari West",
    "lat": 19.1475045,
    "lng": 72.8427768,
    "price": 15978201.814058958
  },
  {
    "name": "Juhu",
    "lat": 19.0947669,
    "lng": 72.8392585,
    "price": 102650000.0
  },
  {
    "name": "Juhu Scheme",
    "lat": 19.0947669,
    "lng": 72.8392585,
    "price": 47500000.0
  },
  {
    "name": "Juinagar",
    "lat": 19.054703,
    "lng": 73.016023,
    "price": 28266666.666666668
  },
  {
    "name": "Kalamboli",
    "lat": 19.0262741,
    "lng": 73.0968058,
    "price": 7390133.0275229355
  },
  {
    "name": "Kalher",
    "lat": 18.9690472,
    "lng": 72.8211807,
    "price": 1933333.3333333333
  },
  {
    "name": "Kalwa",
    "lat": 18.9690472,
    "lng": 72.8211807,
    "price": 5766666.666666667
  },
  {
    "name": "Kalyan East",
    "lat": 18.955464643012,
    "lng": 72.840313734733,
    "price": 4687839.285714285
  },
  {
    "name": "Kalyan West",
    "lat": 18.955464643012,
    "lng": 72.840313734733,
    "price": 6402922.8650137745
  },
  {
    "name": "Kamathipura",
    "lat": 18.966783,
    "lng": 72.826433,
    "price": 37000000.0
  },
  {
    "name": "Kamothe",
    "lat": 19.0249956,
    "lng": 73.0935132,
    "price": 7547723.747980614
  },
  {
    "name": "Kandivali East",
    "lat": 19.2059812,
    "lng": 72.8660554,
    "price": 17455409.657320872
  },
  {
    "name": "Kandivali West",
    "lat": 19.2033961,
    "lng": 72.8336972,
    "price": 17107366.022099447
  },
  {
    "name": "Kanjurmarg",
    "lat": 19.131744631293,
    "lng": 72.935870026043,
    "price": 17816482.73273273
  },
  {
    "name": "Kanjurmarg East",
    "lat": 19.1214837,
    "lng": 72.9380592,
    "price": 15220000.0
  },
  {
    "name": "Karanjade",
    "lat": 19.138469802746,
    "lng": 72.816250032194,
    "price": 5355484.693877551
  },
  {
    "name": "Karjat",
    "lat": 18.9690472,
    "lng": 72.8211807,
    "price": 2361412.2807017546
  },
  {
    "name": "Kasheli",
    "lat": 16.729076,
    "lng": 73.31942,
    "price": 2521000.0
  },
  {
    "name": "Kewale",
    "lat": 18.9690472,
    "lng": 72.8211807,
    "price": 3333666.6666666665
  },
  {
    "name": "Khanda Colony",
    "lat": 19.008694,
    "lng": 73.1080733,
    "price": 4453000.0
  },
  {
    "name": "Khar",
    "lat": 19.06667,
    "lng": 72.83333,
    "price": 62284402.597402595
  },
  {
    "name": "Khar West",
    "lat": 19.0713753,
    "lng": 72.8371691,
    "price": 72375000.0
  },
  {
    "name": "Khardi",
    "lat": 18.9690472,
    "lng": 72.8211807,
    "price": 11375000.0
  },
  {
    "name": "Kharghar",
    "lat": 19.0493913,
    "lng": 73.0652656,
    "price": 13656184.589331076
  },
  {
    "name": "Khatiwali",
    "lat": 19.0626435,
    "lng": 72.8427648,
    "price": 900000.0
  },
  {
    "name": "Khopoli",
    "lat": 18.78562,
    "lng": 73.34589,
    "price": 4528625.0
  },
  {
    "name": "Koper Khairane",
    "lat": 19.101938,
    "lng": 73.0037767,
    "price": 14086881.11888112
  },
  {
    "name": "Koproli",
    "lat": 18.7945407,
    "lng": 72.9037089,
    "price": 3820300.0
  },
  {
    "name": "Kurla",
    "lat": 19.0656738,
    "lng": 72.8790894,
    "price": 11970480.938416421
  },
  {
    "name": "Kurla East",
    "lat": 19.061315,
    "lng": 72.892929,
    "price": 13333333.333333334
  },
  {
    "name": "Kurla West",
    "lat": 19.0842541,
    "lng": 72.8851751,
    "price": 11299999.999999998
  },
  {
    "name": "L I C Colony",
    "lat": 19.240829,
    "lng": 72.849892,
    "price": 7000000.0
  },
  {
    "name": "Lower Parel",
    "lat": 18.9962663,
    "lng": 72.8268788,
    "price": 81394664.63414635
  },
  {
    "name": "MATUNGA WEST",
    "lat": 19.0307709,
    "lng": 72.8427479,
    "price": 15750000.0
  },
  {
    "name": "Mahalaxmi",
    "lat": 18.987302,
    "lng": 72.814211,
    "price": 75064615.38461539
  },
  {
    "name": "Mahavir Nagar",
    "lat": 19.119408,
    "lng": 72.878551,
    "price": 32666666.666666668
  },
  {
    "name": "Mahim",
    "lat": 19.043107,
    "lng": 72.8404508,
    "price": 40858305.084745765
  },
  {
    "name": "Mahim West",
    "lat": 19.0401538,
    "lng": 72.8396805,
    "price": 67250000.0
  },
  {
    "name": "Malabar Hill",
    "lat": 18.9495399,
    "lng": 72.7977234,
    "price": 275000000.0
  },
  {
    "name": "Malad East",
    "lat": 19.1802403,
    "lng": 72.8590008,
    "price": 19433772.413793102
  },
  {
    "name": "Malad West",
    "lat": 19.1816581,
    "lng": 72.8356664,
    "price": 19956212.144504227
  },
  {
    "name": "Maneklal Estate",
    "lat": 19.088555611246,
    "lng": 72.90431248625,
    "price": 6200000.0
  },
  {
    "name": "Manjarli",
    "lat": 18.9690472,
    "lng": 72.8211807,
    "price": 2250000.0
  },
  {
    "name": "Manpada",
    "lat": 19.072231,
    "lng": 72.862765,
    "price": 20881250.0
  },
  {
    "name": "Marine Lines",
    "lat": 18.9427487,
    "lng": 72.8236176,
    "price": 70497674.41860466
  },
  {
    "name": "Matunga",
    "lat": 19.03333,
    "lng": 72.85,
    "price": 40614767.44186047
  },
  {
    "name": "Mazagaon",
    "lat": 18.9679057,
    "lng": 72.8445766,
    "price": 28736734.69387755
  },
  {
    "name": "Mazgaon",
    "lat": 18.96806,
    "lng": 72.845,
    "price": 43781250.0
  },
  {
    "name": "Mira Road",
    "lat": 19.176886,
    "lng": 72.869566,
    "price": 7800000.0
  },
  {
    "name": "Mira Road East",
    "lat": 19.083657813763,
    "lng": 72.840639861692,
    "price": 8141247.727731772
  },
  {
    "name": "Mulund",
    "lat": 19.164685085027,
    "lng": 72.963595340477,
    "price": 12250000.0
  },
  {
    "name": "Mulund East",
    "lat": 19.1443888,
    "lng": 72.9506819,
    "price": 19871949.541284405
  },
  {
    "name": "Mulund West",
    "lat": 19.1748216,
    "lng": 72.9421763,
    "price": 20929363.040629096
  },
  {
    "name": "Mumbai Central",
    "lat": 18.9770366,
    "lng": 72.826266,
    "price": 44333333.333333336
  },
  {
    "name": "Mumbra",
    "lat": 19.1754002,
    "lng": 73.0231025,
    "price": 1950000.0
  },
  {
    "name": "Nahur East",
    "lat": 19.152856,
    "lng": 72.947497,
    "price": 20871428.57142857
  },
  {
    "name": "Naigaon East",
    "lat": 19.012786693668,
    "lng": 72.853184460141,
    "price": 3839120.4250295158
  },
  {
    "name": "Nala Sopara",
    "lat": 19.4147911,
    "lng": 72.7667774,
    "price": 3149244.648318043
  },
  {
    "name": "Nalasopara East",
    "lat": 19.4185645,
    "lng": 72.8207941,
    "price": 3056666.6666666665
  },
  {
    "name": "Nalasopara West",
    "lat": 19.4204716,
    "lng": 72.7993851,
    "price": 3299000.0
  },
  {
    "name": "Napeansea Road",
    "lat": 18.960790389549,
    "lng": 72.801841283187,
    "price": 177000000.0
  },
  {
    "name": "Naupada",
    "lat": 19.05719,
    "lng": 72.843167,
    "price": 30083333.333333332
  },
  {
    "name": "Navade",
    "lat": 18.9690472,
    "lng": 72.8211807,
    "price": 4079600.0
  },
  {
    "name": "Neral",
    "lat": 18.9690472,
    "lng": 72.8211807,
    "price": 2955204.724409449
  },
  {
    "name": "Nerul",
    "lat": 19.04843068481,
    "lng": 73.023228285429,
    "price": 32074340.90909091
  },
  {
    "name": "Nilje Gaon",
    "lat": 18.9690472,
    "lng": 72.8211807,
    "price": 5062814.814814814
  },
  {
    "name": "Owale",
    "lat": 18.9690472,
    "lng": 72.8211807,
    "price": 13133000.0
  },
  {
    "name": "Palava",
    "lat": 19.1188835,
    "lng": 72.8460375,
    "price": 4941875.0
  },
  {
    "name": "Palghar",
    "lat": 19.699699,
    "lng": 72.771599,
    "price": 2270429.4478527606
  },
  {
    "name": "Pali Hill",
    "lat": 19.05997,
    "lng": 72.829935,
    "price": 47500000.0
  },
  {
    "name": "Palidevad",
    "lat": 18.9984782,
    "lng": 73.1299666,
    "price": 4700000.0
  },
  {
    "name": "Panch Pakhdi",
    "lat": 19.1990911,
    "lng": 72.9709582,
    "price": 15450000.0
  },
  {
    "name": "Panvel",
    "lat": 18.9690472,
    "lng": 72.8211807,
    "price": 8573558.344640434
  },
  {
    "name": "Parel",
    "lat": 19.004977,
    "lng": 72.8535506,
    "price": 48170202.02020202
  },
  {
    "name": "Patlipada",
    "lat": 19.03492,
    "lng": 72.942172,
    "price": 29023529.411764707
  },
  {
    "name": "Peddar Road",
    "lat": 18.964222093577,
    "lng": 72.808893091996,
    "price": 206250000.0
  },
  {
    "name": "Pen",
    "lat": 18.9690472,
    "lng": 72.8211807,
    "price": 2500000.0
  },
  {
    "name": "Pestom Sagar Colony",
    "lat": 19.069816,
    "lng": 72.903127,
    "price": 11000000.0
  },
  {
    "name": "Police Colony",
    "lat": 18.968027,
    "lng": 72.831134,
    "price": 16000000.0
  },
  {
    "name": "Powai",
    "lat": 19.1238155,
    "lng": 72.9126101,
    "price": 30485904.090267982
  },
  {
    "name": "Prabhadevi",
    "lat": 19.0093356,
    "lng": 72.8305714,
    "price": 94981132.0754717
  },
  {
    "name": "Rabale",
    "lat": 18.9690472,
    "lng": 72.8211807,
    "price": 6843750.0
  },
  {
    "name": "Rambaug",
    "lat": 19.1194036,
    "lng": 72.8986875,
    "price": 8000000.0
  },
  {
    "name": "Rasayani",
    "lat": 18.9491202,
    "lng": 73.1738211,
    "price": 2837603.1746031744
  },
  {
    "name": "Roadpali",
    "lat": 19.061803749679,
    "lng": 72.829136660937,
    "price": 6200000.0
  },
  {
    "name": "Sanpada",
    "lat": 19.054703,
    "lng": 73.016023,
    "price": 19423118.942731276
  },
  {
    "name": "Santacruz East",
    "lat": 19.0748763,
    "lng": 72.8588781,
    "price": 22992447.795823667
  },
  {
    "name": "Santacruz West",
    "lat": 19.0820232,
    "lng": 72.8377477,
    "price": 73965555.55555555
  },
  {
    "name": "Saphale",
    "lat": 19.230928606927,
    "lng": 72.869375205072,
    "price": 2070166.6666666667
  },
  {
    "name": "Seawoods",
    "lat": 19.234848194399,
    "lng": 72.830778887882,
    "price": 24787389.684813753
  },
  {
    "name": "Sector 11 Koparkhairane",
    "lat": 19.09456,
    "lng": 73.012616,
    "price": 13500000.0
  },
  {
    "name": "Sector 12 Kharghar",
    "lat": 19.044425,
    "lng": 73.065296,
    "price": 18666666.666666668
  },
  {
    "name": "Sector 14 Vashi",
    "lat": 19.084542,
    "lng": 73.005205,
    "price": 9000000.0
  },
  {
    "name": "Sector 17 Ulwe",
    "lat": 19.0332868,
    "lng": 73.0220934,
    "price": 6750000.0
  },
  {
    "name": "Sector 18 Kharghar",
    "lat": 19.0468131,
    "lng": 73.0807166,
    "price": 2700000.0
  },
  {
    "name": "Sector 19 Kamothe",
    "lat": 19.0134806,
    "lng": 73.0927433,
    "price": 8440000.0
  },
  {
    "name": "Sector 19 Kharghar",
    "lat": 19.0485078,
    "lng": 73.0799976,
    "price": 16500000.0
  },
  {
    "name": "Sector 20 Kamothe",
    "lat": 19.0166164,
    "lng": 73.0965919,
    "price": 5750000.0
  },
  {
    "name": "Sector 20 Ulwe",
    "lat": 19.034534,
    "lng": 73.015598,
    "price": 5000000.0
  },
  {
    "name": "Sector 21 Kamothe",
    "lat": 19.0137088,
    "lng": 73.0966854,
    "price": 11631250.0
  },
  {
    "name": "Sector 21 Kharghar",
    "lat": 19.050899,
    "lng": 73.067618,
    "price": 12800000.0
  },
  {
    "name": "Sector 21 Nerul",
    "lat": 19.030624,
    "lng": 73.019998,
    "price": 29000000.0
  },
  {
    "name": "Sector 22 Kamothe",
    "lat": 19.0140362,
    "lng": 73.100759,
    "price": 5550000.0
  },
  {
    "name": "Sector 23 Ulwe",
    "lat": 18.9722486,
    "lng": 73.032925,
    "price": 4750000.0
  },
  {
    "name": "Sector 30 Kharghar",
    "lat": 19.065867,
    "lng": 73.069451,
    "price": 4600000.0
  },
  {
    "name": "Sector 6 Kamothe",
    "lat": 19.0228476,
    "lng": 73.0947926,
    "price": 6000000.0
  },
  {
    "name": "Sector 7 Kharghar",
    "lat": 19.035715,
    "lng": 73.065698,
    "price": 13000000.0
  },
  {
    "name": "Sector 8 New panvel",
    "lat": 19.031065,
    "lng": 73.070925,
    "price": 3500000.0
  },
  {
    "name": "Sector 9 Vashi",
    "lat": 19.2209302,
    "lng": 72.8231499,
    "price": 13000000.0
  },
  {
    "name": "Sector-12 Kamothe",
    "lat": 19.018166,
    "lng": 73.0885563,
    "price": 5700000.0
  },
  {
    "name": "Sector-14 Koparkhairane",
    "lat": 19.097583,
    "lng": 73.001071,
    "price": 17500000.0
  },
  {
    "name": "Sector-3 Ulwe",
    "lat": 19.217036,
    "lng": 72.829939,
    "price": 3600000.0
  },
  {
    "name": "Sector-35D Kharghar",
    "lat": 19.0493913,
    "lng": 73.0652656,
    "price": 5500000.0
  },
  {
    "name": "Sector-4 New Panvel",
    "lat": 19.0222124,
    "lng": 73.0984436,
    "price": 7200000.0
  },
  {
    "name": "Sector-50 Seawoods",
    "lat": 19.234848194399,
    "lng": 72.830778887882,
    "price": 7700000.0
  },
  {
    "name": "Sector-9 Kamothe",
    "lat": 19.0203283,
    "lng": 73.0957321,
    "price": 5100000.0
  },
  {
    "name": "Sector-9 Ulwe",
    "lat": 19.2209302,
    "lng": 72.8231499,
    "price": 8350000.0
  },
  {
    "name": "Sewri",
    "lat": 18.988586882584,
    "lng": 72.852295474474,
    "price": 28428571.42857143
  },
  {
    "name": "Shahapur",
    "lat": 19.457611,
    "lng": 73.3214769,
    "price": 4551571.428571428
  },
  {
    "name": "Shelu",
    "lat": 18.9690472,
    "lng": 72.8211807,
    "price": 11500000.0
  },
  {
    "name": "Shil Phata",
    "lat": 19.1442991,
    "lng": 73.0401004,
    "price": 5388314.814814814
  },
  {
    "name": "Sion",
    "lat": 19.042089,
    "lng": 72.8644855,
    "price": 25307964.601769913
  },
  {
    "name": "Taloja",
    "lat": 18.9690472,
    "lng": 72.8211807,
    "price": 4652057.823129252
  },
  {
    "name": "Taloje",
    "lat": 18.9690472,
    "lng": 72.8211807,
    "price": 4060555.5555555555
  },
  {
    "name": "Tardeo",
    "lat": 18.9679484,
    "lng": 72.8136449,
    "price": 96073913.04347827
  },
  {
    "name": "Thane East",
    "lat": 19.1645,
    "lng": 72.9298,
    "price": 11749086.206896551
  },
  {
    "name": "Thane West",
    "lat": 19.1645,
    "lng": 72.9298,
    "price": 19817330.239440408
  },
  {
    "name": "Tilak Nagar",
    "lat": 19.0415289,
    "lng": 72.8472686,
    "price": 16066666.666666666
  },
  {
    "name": "Titwala",
    "lat": 19.2862128,
    "lng": 73.210593,
    "price": 3236875.0
  },
  {
    "name": "Ulhasnagar",
    "lat": 19.235287288914,
    "lng": 72.853573372385,
    "price": 7359794.871794872
  },
  {
    "name": "Ulwe",
    "lat": 18.9690472,
    "lng": 72.8211807,
    "price": 7936536.016949153
  },
  {
    "name": "Umroli",
    "lat": 18.9690472,
    "lng": 72.8211807,
    "price": 1507760.0
  },
  {
    "name": "Unnat Nagar",
    "lat": 19.167071,
    "lng": 72.845126,
    "price": 7500000.0
  },
  {
    "name": "Uran",
    "lat": 18.9690472,
    "lng": 72.8211807,
    "price": 3400000.0
  },
  {
    "name": "Usarghar Gaon",
    "lat": 18.171585,
    "lng": 73.313655,
    "price": 3050000.0
  },
  {
    "name": "Uttan",
    "lat": 18.9690472,
    "lng": 72.8211807,
    "price": 10000000.0
  },
  {
    "name": "Vangani",
    "lat": 20.057248,
    "lng": 73.262705,
    "price": 2662615.3846153845
  },
  {
    "name": "Vasai",
    "lat": 19.10066347993,
    "lng": 72.84058026636,
    "price": 5005507.614213198
  },
  {
    "name": "Vasai West",
    "lat": 19.10066347993,
    "lng": 72.84058026636,
    "price": 3600000.0
  },
  {
    "name": "Vasai east",
    "lat": 19.10066347993,
    "lng": 72.84058026636,
    "price": 3950000.0
  },
  {
    "name": "Vashi",
    "lat": 18.9690472,
    "lng": 72.8211807,
    "price": 22208333.333333332
  },
  {
    "name": "Vasind",
    "lat": 18.9690472,
    "lng": 72.8211807,
    "price": 2389600.0
  },
  {
    "name": "Versova",
    "lat": 19.1378852,
    "lng": 72.8135863,
    "price": 1250000.0
  },
  {
    "name": "Vevoor",
    "lat": 18.9690472,
    "lng": 72.8211807,
    "price": 1400000.0
  },
  {
    "name": "Vichumbe",
    "lat": 18.9874518,
    "lng": 73.1391316,
    "price": 4358333.333333333
  },
  {
    "name": "Vikhroli",
    "lat": 19.114855,
    "lng": 72.9263245,
    "price": 13657199.182839632
  },
  {
    "name": "Vikroli East",
    "lat": 19.1028503,
    "lng": 72.9304672,
    "price": 10525000.0
  },
  {
    "name": "Ville Parle East",
    "lat": 19.0965026,
    "lng": 72.8533537,
    "price": 30328813.559322033
  },
  {
    "name": "Ville Parle West",
    "lat": 19.1032991,
    "lng": 72.8396166,
    "price": 39190243.90243903
  },
  {
    "name": "Virar",
    "lat": 18.515795,
    "lng": 73.858742,
    "price": 4149549.775208735
  },
  {
    "name": "Virar East",
    "lat": 19.4609239,
    "lng": 72.8162236,
    "price": 2531666.6666666665
  },
  {
    "name": "Virar West",
    "lat": 19.4464635,
    "lng": 72.7802152,
    "price": 4552000.0
  },
  {
    "name": "Wadala",
    "lat": 19.0126603,
    "lng": 72.8664961,
    "price": 34781672.39404353
  },
  {
    "name": "Warai",
    "lat": 19.01667,
    "lng": 72.81667,
    "price": 3300000.0
  },
  {
    "name": "Worli",
    "lat": 19.001465,
    "lng": 72.8160656,
    "price": 107234648.40182649
  },
  {
    "name": "kandivali",
    "lat": 19.1130297,
    "lng": 72.8975373,
    "price": 30750000.0
  },
  {
    "name": "kasaradavali thane west",
    "lat": 19.266362,
    "lng": 72.971394,
    "price": 6338777.777777778
  },
  {
    "name": "mumbai",
    "lat": 18.9690472,
    "lng": 72.8211807,
    "price": 2999000.0
  },
  {
    "name": "sector",
    "lat": 18.9690472,
    "lng": 72.8211807,
    "price": 15000000.0
  },
  {
    "name": "vile parle west",
    "lat": 19.1032991,
    "lng": 72.8396166,
    "price": 10500000.0
  }
]